station_id,station_name,latitude,longitude,elevation_m,country
2799,Missing Station ID - AQ000914188        ,-999,-999,-999,American Samoa [United States]          
2800,Missing Station ID - AQ000914021        ,-999,-999,-999,American Samoa [United States]          
13493,Missing Station ID - FM000914814        ,-999,-999,-999,Federated States of Micronesia          
13497,Missing Station ID - FM000914851        ,-999,-999,-999,Federated States of Micronesia          
18299,Missing Station ID - MH000914300        ,-999,-999,-999,Montserrat [United Kingdom]             
18768,Missing Station ID - CQ000914861        ,-999,-999,-999,Northern Mariana Islands [United States]
19328,Missing Station ID - PS000914015        ,-999,-999,-999,Palau                                   
19333,Missing Station ID - LQ000914701        ,-999,-999,-999,Palmyra Atoll [United States]           
19876,JAJOME ALTO                             ,18.0717,-66.1428,719.3,Puerto Rico [United States]             
19901,NARANJALES                              ,18.2097,-66.9956,518.2,Puerto Rico [United States]             
19902,NAGUABO 6 W                             ,18.2333,-65.7333,29.9,Puerto Rico [United States]             
19912,CERRO GORDO CIALES                      ,18.2764,-66.5194,291.1,Puerto Rico [United States]             
19914,CULEBRA HILL                            ,18.2972,-65.29,71.3,Puerto Rico [United States]             
19919,PALMA SOLA                              ,18.3167,-65.8661,466,Puerto Rico [United States]             
19934,CANDELARIA TOA BAJA                     ,18.4167,-66.2,45.1,Puerto Rico [United States]             
19940,TOA BAJA 1 SSW                          ,18.4333,-66.2667,7.9,Puerto Rico [United States]             
19944,GARROCHALES                             ,18.45,-66.5833,9.1,Puerto Rico [United States]             
31937,GREENBAY 3 NE                           ,37.1756,-78.2786,152.4,United States                           
35622,W LAFAYETTE SEW PLT                     ,40.4169,-86.9058,163.4,United States                           
37526,BRIDGEWATER                             ,41.9539,-70.9572,12.2,United States                           
40403,SUTTON 2 NE                             ,44.665,-72.0233,304.8,United States                           
41608,RYEGATE                                 ,46.2986,-109.2561,1112.5,United States                           
43856,Missing Station ID - US1MOJC0001        ,-999,-999,-999,United States                           
43884,Missing Station ID - USC00171381        ,-999,-999,-999,United States                           
44232,TAGUE BAY                               ,17.75,-64.6,9.1,Virgin Islands [United States]          
44237,LAMESHUR BAY                            ,18.3167,-64.7333,51.8,Virgin Islands [United States]          
88148,LEONE                                   ,-14.35,-170.7833,6.1,American Samoa [United States]          
88149,TAPUTIMU TUTUILA                        ,-14.35,-170.7667,14.9,American Samoa [United States]          
88151,PAGO PAGO WSO AP                        ,-14.3306,-170.7136,3.7,American Samoa [United States]          
88152,AMOULI TUTUILA                          ,-14.2667,-170.5833,6.1,American Samoa [United States]          
88153,FALEASAO TAU                            ,-14.2167,-168.5333,6.1,American Samoa [United States]          
88155,Missing Station ID - AQC00914690        ,-999,-999,-999,American Samoa [United States]          
91738,UTWA                                    ,5.2739,162.9742,4,Federated States of Micronesia          
91740,SATAWAN ATOLL                           ,5.3333,153.7333,2.7,Federated States of Micronesia          
91746,METALANIM                               ,6.8456,158.3064,9.1,Federated States of Micronesia          
91748,OA                                      ,6.9333,158.3167,24.1,Federated States of Micronesia          
91751,POLOWAT                                 ,7.35,149.2,2.1,Federated States of Micronesia          
91756,YAP ISLAND WSO AP                       ,9.4833,138.0833,13.4,Federated States of Micronesia          
91759,MAAP                                    ,9.6053,138.1786,14.9,Federated States of Micronesia          
91763,Missing Station ID - FMC00914951        ,-999,-999,-999,Federated States of Micronesia          
92006,COCOS ISLAND GUAM                       ,13.2333,144.65,3,Guam [United States]                    
92009,MANGILAO                                ,13.4528,144.7981,18.3,Guam [United States]                    
92013,ANDERSEN AFB GUAM                       ,13.5761,144.9281,190.2,Guam [United States]                    
92015,Missing Station ID - GQC00914226        ,-999,-999,-999,Guam [United States]                    
92016,Missing Station ID - GQC00914278        ,-999,-999,-999,Guam [United States]                    
92017,Missing Station ID - GQC00914229        ,-999,-999,-999,Guam [United States]                    
92213,MARCUS ISLAND WB                        ,24.3,153.9667,6.1,Japan                                   
92218,IWO JIMA AFB                            ,24.7833,141.3333,106.1,Japan                                   
92221,NAHA AFB OKINAWA                        ,26.2,127.65,0,Japan                                   
92227,KADENA AFB OKINAWA                      ,26.35,127.75,42.1,Japan                                   
92403,JOHNSTON ISLAND                         ,16.7333,-169.5167,3,Johnston Atoll [United States]          
92405,Missing Station ID - JQC00914320        ,-999,-999,-999,Johnston Atoll [United States]          
92576,CANTON ISLAND                           ,-2.7667,-171.7167,3,Kiribati                                
92712,JABOR                                   ,5.9167,169.65,0,Marshall Islands                        
92714,MAJURO WBAS AP                          ,7.0833,171.3833,3,Marshall Islands                        
92719,KWAJALEIN MISSLE RANGE                  ,8.7333,167.7333,2.1,Marshall Islands                        
92722,ENIWETOK WSO                            ,11.35,162.35,3,Marshall Islands                        
92723,Missing Station ID - RMC00914460        ,-999,-999,-999,Marshall Islands                        
92724,Missing Station ID - RMC00914375        ,-999,-999,-999,Marshall Islands                        
92783,MIDWAY SAND ISLAND                      ,28.2167,-177.35,3,Midway Islands [United States}          
92875,ROTA                                    ,14.1333,145.15,14.3,Northern Mariana Islands [United States]
92879,SAIPAN LORAN                            ,15.1333,145.7,3,Northern Mariana Islands [United States]
92880,CAPITOL HILL 1                          ,15.2136,145.7497,252.1,Northern Mariana Islands [United States]
92881,SAIPAN #2                               ,15.2167,145.7333,152.1,Northern Mariana Islands [United States]
92971,ANGUAR                                  ,6.9167,134.15,6.1,Palau                                   
92975,KOROR WSO                               ,7.3333,134.4833,28.7,Palau                                   
92977,NEKKEN FORESTRY                         ,7.45,134.5,31.1,Palau                                   
92978,AIMELIK BABELTHUAP                      ,7.45,134.5167,60,Palau                                   
92979,NGASANG BABELTHUAP                      ,7.6333,134.65,3,Palau                                   
92980,Missing Station ID - PSC00914351        ,-999,-999,-999,Palau                                   
92981,PALMYRA                                 ,5.8833,-162.0833,3,Palmyra Atoll [United States]           
93022,LUZON CLARK AFB                         ,15.1833,120.55,144.8,Philippines                             
93036,AGUIRRE                                 ,17.9556,-66.2222,7.6,Puerto Rico [United States]             
93038,AGUIRRE                                 ,17.9667,-66.2167,14.9,Puerto Rico [United States]             
93039,MAGUEYES ISLAND                         ,17.9722,-67.0461,3.7,Puerto Rico [United States]             
93040,GUAYAMA 2E                              ,17.9783,-66.0875,21.9,Puerto Rico [United States]             
93041,MAUNABO                                 ,18.0094,-65.8989,14.9,Puerto Rico [United States]             
93042,PONCE MERCEDITA AP                      ,18.0167,-66.5667,7.9,Puerto Rico [United States]             
93043,PONCE 4 E                               ,18.0258,-66.5253,21.3,Puerto Rico [United States]             
93044,LAJAS SUBSTN                            ,18.0331,-67.0722,27.4,Puerto Rico [United States]             
93045,PATILLAS DAM                            ,18.0333,-66.0333,73.2,Puerto Rico [United States]             
93046,JUANA DIAZ CAMP                         ,18.0514,-66.4986,79.9,Puerto Rico [United States]             
93047,YABUCOA 1 NNE                           ,18.0628,-65.8733,9.1,Puerto Rico [United States]             
93048,MONA ISLAND                             ,18.0833,-67.85,50.9,Puerto Rico [United States]             
93049,SAN GERMAN 4 W                          ,18.0833,-67.1,27.1,Puerto Rico [United States]             
93050,CARITE DAM                              ,18.0833,-66.1,551.1,Puerto Rico [United States]             
93051,MONA ISLAND 2                           ,18.0908,-67.9442,2.1,Puerto Rico [United States]             
93052,SAN LORENZO ESPINO                      ,18.1,-66,387.1,Puerto Rico [United States]             
93053,BENAVENTE-HORMIGUEROS                   ,18.1164,-67.1133,13.7,Puerto Rico [United States]             
93054,VIEQUES ISLAND                          ,18.1167,-65.4167,15.2,Puerto Rico [United States]             
93055,CAYEY 1 E                               ,18.1189,-66.1658,395,Puerto Rico [United States]             
93056,AIBONITO 1 S                            ,18.1281,-66.2642,710.2,Puerto Rico [United States]             
93057,HUMACAO 2 SSE                           ,18.1333,-65.8167,39.9,Puerto Rico [United States]             
93058,VIEQUES ISLAND #2                       ,18.1333,-65.4333,6.7,Puerto Rico [United States]             
93059,GARZAS                                  ,18.15,-66.7333,719,Puerto Rico [United States]             
93060,MARICAO 2 SSW                           ,18.1511,-66.9889,863.2,Puerto Rico [United States]             
93061,CERRO MARAVILLA                         ,18.1547,-66.562,1219.8,Puerto Rico [United States]             
93062,GUINEO RSVR                             ,18.1667,-66.5333,914.1,Puerto Rico [United States]             
93063,BARRANQUITAS                            ,18.1667,-66.3167,627.9,Puerto Rico [United States]             
93064,TORO NEGRO FOREST                       ,18.1731,-66.4928,868.1,Puerto Rico [United States]             
93065,ADJUNTAS SUBSTN                         ,18.1747,-66.7978,557.8,Puerto Rico [United States]             
93066,CIDRA 1 E                               ,18.1833,-66.15,426.7,Puerto Rico [United States]             
93067,MAYAGUEZ CITY                           ,18.1875,-67.1378,22.6,Puerto Rico [United States]             
93068,JAYUYA 1 SE                             ,18.2,-66.5833,530,Puerto Rico [United States]             
93069,JAYUYA                                  ,18.215,-66.5931,469.4,Puerto Rico [United States]             
93070,JUNCOS 1 SE                             ,18.2264,-65.9114,64.9,Puerto Rico [United States]             
93071,CAGUAS                                  ,18.2333,-66.0333,75.9,Puerto Rico [United States]             
93072,CAGUAS 2 ENE                            ,18.25,-66.0167,53.9,Puerto Rico [United States]             
93073,GURABO                                  ,18.25,-65.9667,75.9,Puerto Rico [United States]             
93074,MAYAGUEZ AIRPORT                        ,18.2539,-67.1486,11.6,Puerto Rico [United States]             
93075,ROOSEVELT ROADS                         ,18.255,-65.6408,10.1,Puerto Rico [United States]             
93076,GURABO SUBSTN                           ,18.2583,-65.9922,48.8,Puerto Rico [United States]             
93077,UTUADO                                  ,18.2617,-66.6864,158.5,Puerto Rico [United States]             
93078,COMERIO FALLS PLT 2                     ,18.2667,-66.1833,111.9,Puerto Rico [United States]             
93079,COMERIO FALLS                           ,18.2667,-66.1833,152.1,Puerto Rico [United States]             
93080,PICO DEL ESTE                           ,18.2708,-65.7592,1051,Puerto Rico [United States]             
93081,LARES                                   ,18.2833,-66.8833,451.1,Puerto Rico [United States]             
93082,LA MINA EL YUNQUE                       ,18.3,-65.7833,625.1,Puerto Rico [United States]             
93083,CULEBRA ISLAND                          ,18.3,-65.2833,14.9,Puerto Rico [United States]             
93084,FAJARDO                                 ,18.3103,-65.6631,9.1,Puerto Rico [United States]             
93085,COROZAL SUBSTN                          ,18.3267,-66.3592,198.1,Puerto Rico [United States]             
93086,TRUJILLO ALTO 2 SSW                     ,18.3283,-66.0164,35.1,Puerto Rico [United States]             
93087,DOS BOCAS                               ,18.3361,-66.6667,61,Puerto Rico [United States]             
93088,RINCON                                  ,18.3375,-67.2497,3,Puerto Rico [United States]             
93089,SAN SEBASTIAN 2 WNW                     ,18.3469,-67.0119,51.8,Puerto Rico [United States]             
93090,ARECIBO OBSY                            ,18.3494,-66.7525,323.1,Puerto Rico [United States]             
93091,CANOVANAS                               ,18.3792,-65.8939,9.1,Puerto Rico [United States]             
93092,COLOSO                                  ,18.3808,-67.1569,12.2,Puerto Rico [United States]             
93093,PALMAREJO VEGA BAJA                     ,18.385,-66.43,170.7,Puerto Rico [United States]             
93094,RIO PIEDRAS EXP STN                     ,18.3906,-66.0542,28,Puerto Rico [United States]             
93095,RIO PIEDRAS                             ,18.4,-66.0667,29.9,Puerto Rico [United States]             
93096,WFO SAN JUAN                            ,18.4256,-65.9917,8.5,Puerto Rico [United States]             
93097,MANATI 2 E                              ,18.4308,-66.4661,76.2,Puerto Rico [United States]             
93098,SAN JUAN INTL AP                        ,18.4325,-66.0108,2.7,Puerto Rico [United States]             
93100,TOA BAJA LEVITTOWN                      ,18.4356,-66.1678,8.5,Puerto Rico [United States]             
93101,CAMBALACHE EXP FOREST                   ,18.45,-66.6,29.9,Puerto Rico [United States]             
93102,ARECIBO 3 ESE                           ,18.4533,-66.6747,3,Puerto Rico [United States]             
93103,ISABELA SUBSTN                          ,18.4653,-67.0525,128,Puerto Rico [United States]             
93105,SAN JUAN CITY                           ,18.4667,-66.1,6.1,Puerto Rico [United States]             
93106,QUEBRADILLAS                            ,18.4719,-66.9358,113.4,Puerto Rico [United States]             
93107,DORADO 2 WNW                            ,18.4722,-66.3058,1.5,Puerto Rico [United States]             
93108,BORINQUEN AP                            ,18.4981,-67.1294,66.4,Puerto Rico [United States]             
93109,Missing Station ID - RQC00668412        ,-999,-999,-999,Puerto Rico [United States]             
93110,Missing Station ID - RQC00667898        ,-999,-999,-999,Puerto Rico [United States]             
93111,Missing Station ID - RQC00668808        ,-999,-999,-999,Puerto Rico [United States]             
93112,Missing Station ID - RQC00668812        ,-999,-999,-999,Puerto Rico [United States]             
93113,Missing Station ID - RQC00660974        ,-999,-999,-999,Puerto Rico [United States]             
94536,COVERT                                  ,-42.2833,-86.2667,-999,United States                           
94537,INARAJAN - NASA                         ,13.3114,-144.7364,85.3,United States                           
94538,NAALEHU 14                              ,19.0647,-155.5886,245.7,United States                           
94539,KIOLAKAA A&F 6                          ,19.0667,-155.6667,646.2,United States                           
94540,KIOLAKAA 7                              ,19.0667,-155.6167,320,United States                           
94541,KAU                                     ,19.0833,-155.6,563.9,United States                           
94543,SOUTH KONA 2 2.32                       ,19.1047,-155.7867,719.3,United States                           
94545,HILEA                                   ,19.1333,-155.5333,100.9,United States                           
94546,SEA MTN 12.15                           ,19.1336,-155.5114,24.4,United States                           
94547,PAHALA 21                               ,19.1986,-155.4778,256,United States                           
94548,PAHALA MAUKA 21.3                       ,19.2036,-155.4858,332.2,United States                           
94549,HOOPULOA                                ,19.2167,-155.85,502.9,United States                           
94550,OPIHIHALE NO 2 24.1                     ,19.2706,-155.8747,414.5,United States                           
94551,KAOHE MAKAI 24.4                        ,19.3167,-155.8833,36.6,United States                           
94552,KALAPANA 1 67.8                         ,19.3333,-155.0333,3,United States                           
94553,KONA EXPERIMENT STATIO                  ,19.3667,-155.9278,457.2,United States                           
94554,CITY OF REFUGE 27.4                     ,19.4167,-155.9167,6.1,United States                           
94555,PUUHONUAOHONAUNAU 27.4                  ,19.4183,-155.9111,4.6,United States                           
94556,HAWAII VOL NP HQ 54                     ,19.43,-155.2567,1210.4,United States                           
94557,KAUELEAU #2                             ,19.4333,-154.9333,-999,United States                           
94558,NAPOOPOO 28                             ,19.4689,-155.9094,121.9,United States                           
94559,GLENWOOD                                ,19.4833,-155.15,702,United States                           
94560,KEALAKEKUA 26.2                         ,19.4917,-155.9117,451.1,United States                           
94563,KAPOHO BEACH 93.11                      ,19.5014,-154.8222,6.1,United States                           
94564,PAHOA 65                                ,19.515,-154.9644,184.4,United States                           
94565,KAPOHO 93                               ,19.5167,-154.85,-999,United States                           
94567,GLENWOOD NO. 2 55.4                     ,19.5189,-155.1414,670.6,United States                           
94568,MTN VIEW #3 91.9                        ,19.5333,-155.1333,583.7,United States                           
94570,KAINALIU 73.2                           ,19.5336,-155.9258,457.2,United States                           
94572,MAUNA LOA SLOPE OBS 39                  ,19.5361,-155.5767,3398.5,United States                           
94574,KULANI MAUKA 76                         ,19.5833,-155.455,2529.8,United States                           
94576,KULANI CAMP 79                          ,19.5933,-155.3011,1575.8,United States                           
94579,OLAA 92                                 ,19.6333,-155.0333,85,United States                           
94580,HOLUALOA 70                             ,19.6347,-155.9078,981.5,United States                           
94582,KONA AP 68.3                            ,19.65,-156.0167,9.1,United States                           
94584,KAUMANA 88.1                            ,19.68,-155.1433,359.7,United States                           
94585,HILO COUNTRY CLUB 86                    ,19.6833,-155.1667,487.7,United States                           
94586,HUMUULA                                 ,19.7167,-155.4333,2037.6,United States                           
94588,HILO INTL AP 87                         ,19.7192,-155.0531,11.6,United States                           
94589,KE-AHOLE PT 68.13                       ,19.7281,-156.0589,6.1,United States                           
94591,HILO 86A                                ,19.7333,-155.0833,11.9,United States                           
94593,POHAKULOA 107                           ,19.7494,-155.5267,1984.6,United States                           
94594,HUEHUE 92.1                             ,19.7533,-155.9714,597.4,United States                           
94596,PUU WAAWAA 94.1                         ,19.7783,-155.8433,768.1,United States                           
94597,MAUNA KEA OBSY 111                      ,19.8167,-155.4667,4198,United States                           
94599,HONOMU MAUKA 138                        ,19.85,-155.15,335.3,United States                           
94600,PEPEEKEO MAKAI 144                      ,19.85,-155.0833,31.1,United States                           
94602,HONOMU MAKAI 143                        ,19.8667,-155.1167,107,United States                           
94603,HAKALAU 142                             ,19.9,-155.1333,48.8,United States                           
94604,WAIKOLOA 95.8                           ,19.9189,-155.7981,268.2,United States                           
94606,KIHALANI 132.5                          ,19.9697,-155.2364,301.8,United States                           
94607,PUAKO 95.1                              ,19.9833,-155.8333,14.9,United States                           
94608,UMIKOA 118                              ,19.9833,-155.3833,1043,United States                           
94611,LALAMILO FLD OF 191.1                   ,20.0131,-155.6686,797.1,United States                           
94612,MAUNA KEA BEACH 98                      ,20.0167,-155.8333,31.1,United States                           
94613,KAMUELA 192.2                           ,20.0167,-155.6667,814.1,United States                           
94614,OOKALA 223                              ,20.0167,-155.2833,131.1,United States                           
94615,PUUKOHOLA HEIAU 98.1                    ,20.0256,-155.8219,40.5,United States                           
94616,WAIMEA 192                              ,20.0333,-155.65,811.1,United States                           
94617,PAAUILO 221                             ,20.0419,-155.3708,243.8,United States                           
94620,HAINA 214                               ,20.1,-155.4667,140.5,United States                           
94622,KUKUIHAELE MILL 206                     ,20.1333,-155.5667,91.4,United States                           
94623,MAHUKONA 159                            ,20.1833,-155.9,3,United States                           
94625,KOHALA MISSION 175.1                    ,20.225,-155.7933,164.6,United States                           
94626,PUAKEA RCH                              ,20.2333,-155.8667,182.9,United States                           
94627,KOHALA 179.1                            ,20.2333,-155.7833,95.1,United States                           
94628,NIULII 179                              ,20.2333,-155.75,24.1,United States                           
94629,HAWI 168                                ,20.2403,-155.8389,176.8,United States                           
94630,UPOLU POINT USCG 159.2                  ,20.25,-155.8833,18.6,United States                           
94631,KOHALA SUGAR                            ,20.25,-155.75,-999,United States                           
94633,KAHOOLAWE 499.6                         ,20.5569,-156.575,365.8,United States                           
94634,MAKENA GOLF CRS 249.1                   ,20.6419,-156.44,26.8,United States                           
94635,ULUPALAKUA RCH 250                      ,20.6486,-156.3983,579.1,United States                           
94636,KIPAHULU 258                            ,20.65,-156.0667,78.9,United States                           
94637,OHE'O 258.6                             ,20.6617,-156.0442,28,United States                           
94638,KEAWAKAPU BEACH 260.2                   ,20.7,-156.45,6.1,United States                           
94639,KULA SANATORIUM 267                     ,20.7,-156.3667,915,United States                           
94640,KULA HOSPITAL 267                       ,20.7008,-156.3561,923.5,United States                           
94641,KOLE KOLE                               ,20.7167,-156.2667,3055.9,United States                           
94642,HALEAKALA SUMMIT 338                    ,20.7167,-156.2667,3037,United States                           
94643,HALEAKALI                               ,20.7167,-156.25,2973.9,United States                           
94644,HANA 354                                ,20.75,-155.9833,36.9,United States                           
94645,KULA BRANCH STN 324.5                   ,20.7583,-156.3211,944.9,United States                           
94646,HALEAKALA RS 338                        ,20.7603,-156.2469,2121.4,United States                           
94647,U OF HAWAII AG RSCH CT                  ,20.7667,-156.3333,929.9,United States                           
94649,NAHIKU 1600 EL                          ,20.7833,-156.0833,-999,United States                           
94650,NAHIKU                                  ,20.7833,-156.0833,487.7,United States                           
94652,LANAI AP 656                            ,20.7894,-156.9486,396.2,United States                           
94653,HONOMAELE 355.2                         ,20.7939,-156.0414,104.5,United States                           
94654,KIHEI 311                               ,20.7944,-156.4447,48.8,United States                           
94655,HANA AP 355                             ,20.7947,-156.0153,22.9,United States                           
94656,KOPILUILA                               ,20.8,-156.15,371.9,United States                           
94657,PAAKEA 350                              ,20.8136,-156.1186,382.5,United States                           
94658,POHAKEA BRG 307.2                       ,20.8156,-156.5072,53.6,United States                           
94659,PUOHOKAMOA 2 343                        ,20.8256,-156.2128,908.3,United States                           
94660,LANAI CITY 672                          ,20.8292,-156.9203,493.8,United States                           
94661,KEANAE 346                              ,20.8294,-156.1681,298.7,United States                           
94662,KOELE 693                               ,20.8333,-156.9167,534,United States                           
94663,PUUNENE                                 ,20.8333,-156.4667,39.9,United States                           
94664,KAILIILI 436                            ,20.8461,-156.2739,768.1,United States                           
94665,HALEAKALA EXP FARM 434                  ,20.85,-156.3,640.1,United States                           
94666,HONOMANU 450                            ,20.85,-156.1833,390.1,United States                           
94668,LAHAINA 361                             ,20.8842,-156.6806,12.2,United States                           
94669,KAILUA 446                              ,20.8906,-156.2128,213.4,United States                           
94670,WAILUKU 386                             ,20.8997,-156.5155,164.6,United States                           
94671,KAHULUI WSO AP 398                      ,20.8997,-156.4286,15.5,United States                           
94673,HAIKU 490                               ,20.9167,-156.3167,149,United States                           
94674,PAUWELA 490                             ,20.9167,-156.3167,149,United States                           
94676,KAANAPALI AP 453.1                      ,20.9333,-156.7,3,United States                           
94677,KAANAPALI AP 453.1                      ,20.9333,-156.7,2.4,United States                           
94679,KAPALUA W MAUI AP 462.4                 ,20.9625,-156.6753,73.2,United States                           
94681,HONOLUA FLD 49 494                      ,21.0144,-156.6375,39.6,United States                           
94682,MAPULEHU 542                            ,21.0667,-156.8,6.1,United States                           
94683,MAUNA LOA 511                           ,21.1328,-157.2133,307.2,United States                           
94684,PUU-O-HOKU RCH 542.1                    ,21.145,-156.7328,202.7,United States                           
94685,KUALAPUU 534                            ,21.1539,-157.0361,267.3,United States                           
94686,MOLOKAI AP 524                          ,21.1544,-157.0961,135,United States                           
94687,KALAWAO                                 ,21.1833,-156.95,21,United States                           
94688,KEPUHI-SHERATON 550.2                   ,21.1836,-157.2467,6.1,United States                           
94689,KALAUPAPA 563                           ,21.19,-156.983,9.1,United States                           
94690,WAIKIKI 717.2                           ,21.2717,-157.8167,3,United States                           
94692,MANINI WAY                              ,21.2931,-157.7944,129.5,United States                           
94693,UNIV OF HAWAII 713                      ,21.2981,-157.8164,34.1,United States                           
94694,US MAGNETIC OBSY                        ,21.3,-158.1,3,United States                           
94696,H SP A EXP STN 707                      ,21.3,-157.8333,14.9,United States                           
94697,MATSONIA DRIVE 720                      ,21.3,-157.7833,249.9,United States                           
94698,HAHAIONE VALLEY                         ,21.3,-157.7167,9.1,United States                           
94700,PUNCHBOWL CRATER 709                    ,21.3103,-157.8458,103,United States                           
94701,CAMPBELL IND PK 702.5                   ,21.3131,-158.1142,3,United States                           
94702,HONOLULU OBSERV. 702.2                  ,21.3153,-157.9992,0.9,United States                           
94706,MANOA WAENA                             ,21.3167,-157.9833,-999,United States                           
94707,HONOLULU SUBSTN 407                     ,21.3167,-157.8667,4,United States                           
94711,HONOLULU WSFO AP 703                    ,21.3239,-157.9294,2.1,United States                           
94713,MANOA LYON ARBO 785.2                   ,21.3331,-157.8025,152.4,United States                           
94716,INSANE ASYLUM                           ,21.3333,-157.8667,9.1,United States                           
94718,TANTALUS 714                            ,21.3333,-157.8167,427,United States                           
94720,WAIMANALO MAUKA                         ,21.3333,-157.7333,43,United States                           
94721,WAIMANALO EXP F 795.1                   ,21.3356,-157.7114,19.5,United States                           
94723,PARADISE COVE 726.1                     ,21.3447,-158.1278,2.4,United States                           
94724,HICKMAN FLD                             ,21.35,-157.95,10.1,United States                           
94725,WAIMANALO 794                           ,21.35,-157.7333,18,United States                           
94727,MAUNAWILI 787.1                         ,21.3508,-157.7667,127.7,United States                           
94728,MAUNAWILI RCH                           ,21.3667,-157.7667,75.9,United States                           
94730,EWA PLANTATION 741                      ,21.3747,-157.9917,6.1,United States                           
94731,KALIHI RSCH SITE 777                    ,21.3753,-157.8222,277.4,United States                           
94732,PUU MANAWAHUA 725.6                     ,21.3814,-158.1197,509.9,United States                           
94734,ALOHA STADIUM HALAWA                    ,21.3833,-157.9333,11.9,United States                           
94735,KANEOHE RCH 838                         ,21.3833,-157.7833,113.1,United States                           
94736,WAIPAHU 750                             ,21.3867,-158.0067,14.3,United States                           
94737,PEARL CITY                              ,21.3928,-157.9744,11,United States                           
94738,KANEOHE MAUKA 781                       ,21.4167,-157.8167,57.9,United States                           
94739,LUALUALEI 804                           ,21.4211,-158.135,36,United States                           
94740,KANEOHE 838.1                           ,21.4233,-157.8014,14.6,United States                           
94741,AHUIMANU LOOP 839.12                    ,21.4319,-157.8372,74.1,United States                           
94742,WAIANAE 798                             ,21.4331,-158.1828,7.6,United States                           
94743,HEEIA                                   ,21.4333,-157.8167,31.1,United States                           
94744,HAIKU PLANTATION 838.2                  ,21.4333,-157.8167,36.9,United States                           
94745,COCONUT ISLAND 840.1                    ,21.4336,-157.7867,0.9,United States                           
94747,WAIHEE 837.5                            ,21.4517,-157.8489,32.9,United States                           
94749,PRI WAHIAWA 820.2                       ,21.4667,-158.0167,214,United States                           
94750,MAKAHA CTRY CLUB 800.3                  ,21.4783,-158.1964,76.2,United States                           
94753,WHEELER AAF 810.1                       ,21.4833,-158.0333,257.9,United States                           
94754,WAHIAWA DAM 863                         ,21.4967,-158.0497,260.3,United States                           
94755,UPPER WAHIAWA 874.3                     ,21.4992,-158.0108,306.9,United States                           
94756,WAHIAWA 872                             ,21.5,-158.0333,281,United States                           
94758,KAHANA 883                              ,21.5111,-157.8989,243.8,United States                           
94759,KUALOA RCH HQ 886.9                     ,21.5214,-157.8375,7.3,United States                           
94760,POAMOHO EXP FM 855.2                    ,21.5383,-158.0892,220.1,United States                           
94762,KAENA POINT 841.3                       ,21.5611,-158.2383,403.9,United States                           
94763,OPAEULA 870                             ,21.5739,-158.0378,288,United States                           
94764,WAIALUA 847                             ,21.575,-158.1203,3,United States                           
94765,CAMP ERDMAN 841.16                      ,21.5792,-158.2244,1.2,United States                           
94768,KAPAKA FARM 904.1                       ,21.6039,-157.9011,0.9,United States                           
94770,WAIMEA VALLEY  892.2                    ,21.6369,-158.0536,12.5,United States                           
94771,B Y U LAIE 903.1                        ,21.6431,-157.9317,6.1,United States                           
94772,PUPUKEA                                 ,21.65,-158.05,159.1,United States                           
94773,CHURCH COLLEGE LAIE                     ,21.65,-157.9333,6.1,United States                           
94775,KII-KAHUKU 911                          ,21.6792,-157.9453,7.6,United States                           
94777,KAHUKU 912                              ,21.695,-157.9811,4,United States                           
94778,KOLOA LN MAK 940.1                      ,21.8667,-159.45,15.8,United States                           
94779,MAKAHUENA POINT 940.1                   ,21.8667,-159.45,15.8,United States                           
94780,KUKUIULA 935                            ,21.8911,-159.495,30.5,United States                           
94781,WEST LAWAI 931                          ,21.8939,-159.5128,64,United States                           
94782,WAHIAWA 930                             ,21.8967,-159.5569,65.5,United States                           
94784,MAHAULEPU 941.1                         ,21.9,-159.4211,24.4,United States                           
94785,EAST LAWAI 934                          ,21.9011,-159.4969,93.9,United States                           
94786,ELEELE 927                              ,21.9058,-159.5789,45.7,United States                           
94787,KOLOA 936                               ,21.9086,-159.4614,73.2,United States                           
94788,MAKAWELI 965                            ,21.9189,-159.6278,42.7,United States                           
94789,BRYDESWOOD STN 985                      ,21.9222,-159.5375,219.5,United States                           
94790,WAIMEA 947                              ,21.9592,-159.6758,6.1,United States                           
94791,PUHI 1013                               ,21.9656,-159.3964,100.3,United States                           
94792,LIHUE 1020                              ,21.9742,-159.3683,63.1,United States                           
94793,LIHUE WSO AP 1020.1                     ,21.9839,-159.3405,30.5,United States                           
94794,WAIAWA 943                              ,21.9944,-159.7314,3,United States                           
94795,KEKAHA 944                              ,22.0025,-159.7547,3,United States                           
94798,MANA 1026                               ,22.03,-159.7628,6.1,United States                           
94799,NIU RIDGE 1035                          ,22.0331,-159.7406,381,United States                           
94801,KOLO 1033                               ,22.0758,-159.7589,11,United States                           
94802,KEALIA 1112                             ,22.1,-159.3167,2.7,United States                           
94804,KANALOHULUHULU 1075                     ,22.1297,-159.6586,1097.3,United States                           
94806,PH WAINIHA 1115                         ,22.1961,-159.5561,30.8,United States                           
94807,KILAUEA 1134                            ,22.2139,-159.4044,118.9,United States                           
94808,PRINCEVILLE RCH 1117                    ,22.2181,-159.4828,66.1,United States                           
94809,KILAUEA POINT 1133                      ,22.2333,-159.4,54.9,United States                           
94813,KEY WEST                                ,24.5667,-81.8,7.9,United States                           
94815,DRY TORTUGAS                            ,24.6278,-82.8736,3,United States                           
94816,BAHIA HONDA SP                          ,24.6589,-81.2761,0.9,United States                           
94817,BIG PINE KEY                            ,24.7167,-81.3833,3,United States                           
94819,MARATHON SHORES                         ,24.7333,-81.05,3,United States                           
94820,CURRY HAMMOCK SP                        ,24.7425,-80.9822,1.5,United States                           
94821,DUCK KEY                                ,24.7706,-80.9072,2.4,United States                           
94822,CONCH KEY                               ,24.7833,-80.8833,1.8,United States                           
94823,ISLAMORADA                              ,24.9178,-80.6364,1.8,United States                           
94824,TAVERNIER                               ,25.0069,-80.5211,2.1,United States                           
94825,FLAMINGO RS                             ,25.1422,-80.9144,0.9,United States                           
94826,FLAMINGO RS                             ,25.15,-80.9333,-999,United States                           
94827,COOT BAY RS                             ,25.1833,-80.9,-999,United States                           
94828,JOHN PENNEKAMP SP                       ,25.1936,-80.3492,3,United States                           
94829,ROYAL PALM RS                           ,25.3867,-80.5936,2.1,United States                           
94831,HOMESTEAD EXP STN                       ,25.5,-80.5,3.4,United States                           
94832,HOMESTEAD GEN AVIATION                  ,25.5011,-80.55,2.7,United States                           
94833,PERRINE 4W                              ,25.5819,-80.4361,3,United States                           
94836,MIAMI 12 SSW                            ,25.65,-80.3,3,United States                           
94837,MIAMI 12 SSW                            ,25.65,-80.2833,3,United States                           
94838,CAPE FLORIDA                            ,25.6719,-80.1567,1.8,United States                           
94839,SOUTH MIAMI 5 W                         ,25.7,-80.35,24.1,United States                           
94841,PINECREST                               ,25.75,-80.9333,4.9,United States                           
94842,MIAMI NWSFO                             ,25.7553,-80.3836,4.3,United States                           
94843,TAMIAMI TRL 40 MI BEND                  ,25.7608,-80.8242,4.6,United States                           
94844,MIAMI BAYFRONT PARK                     ,25.7833,-80.1833,3,United States                           
94845,MIAMI INTL AP                           ,25.7906,-80.3164,8.8,United States                           
94846,MIAMI BEACH                             ,25.8064,-80.1336,0.3,United States                           
94847,CHOKOLOSKEE                             ,25.8144,-81.3617,1.8,United States                           
94848,HIALEAH                                 ,25.8175,-80.2858,3.7,United States                           
94849,EVERGLADES                              ,25.8489,-81.3897,1.5,United States                           
94850,OASIS RS                                ,25.8603,-81.0331,2.4,United States                           
94853,BROWNSVILLE                             ,25.9008,-97.5039,5.5,United States                           
94855,BROWNSVILLE INTL AP                     ,25.9142,-97.423,7.3,United States                           
94857,PENSUCCO II                             ,25.9383,-80.4406,2.1,United States                           
94858,MARCO ISLAND                            ,25.9492,-81.7139,3,United States                           
94859,NORTH MIAMI BEACH #2                    ,25.95,-80.2158,3,United States                           
94861,HOLLYWOOD                               ,26.0283,-80.1342,2.7,United States                           
94862,MERCEDES 6 SSE                          ,26.0619,-97.8997,22.9,United States                           
94865,SOUTH PADRE ISLAND                      ,26.0814,-97.1033,1.5,United States                           
94866,SANTA ANA NWR                           ,26.0825,-98.1353,19.8,United States                           
94867,FT LAUDERDALE EXP STN                   ,26.0833,-80.25,3,United States                           
94868,WESTON                                  ,26.0933,-80.3953,3,United States                           
94869,PORT ISABEL                             ,26.0942,-97.3094,5.2,United States                           
94870,FT LAUDERDALE                           ,26.1019,-80.2011,4.9,United States                           
94871,PLANTATION                              ,26.1108,-80.2728,2.1,United States                           
94872,SAN BENITO                              ,26.1333,-97.6333,11.9,United States                           
94873,FT LAUDERDALE BEACH                     ,26.1408,-80.1072,1.2,United States                           
94876,NAPLES                                  ,26.1686,-81.7158,1.5,United States                           
94877,DONNA                                   ,26.1728,-98.0786,23.5,United States                           
94878,WESLACO                                 ,26.1781,-97.9708,22.9,United States                           
94879,MILES CITY TWR                          ,26.1833,-81.35,46,United States                           
94881,MCALLEN                                 ,26.1917,-98.2511,30.5,United States                           
94884,HARLINGEN                               ,26.2028,-97.6728,11.6,United States                           
94885,MISSION 4 W                             ,26.2167,-98.4,40.5,United States                           
94887,POMPANO BEACH                           ,26.2333,-80.1406,4.6,United States                           
94888,LA JOYA                                 ,26.2422,-98.3992,54.9,United States                           
94890,SANTA ROSA 3 WNW                        ,26.2656,-97.8714,15.2,United States                           
94891,SUNNILAND                               ,26.2667,-81.35,3,United States                           
94892,CORAL SPRINGS                           ,26.2678,-80.275,3,United States                           
94893,EDINBURG                                ,26.2981,-98.1575,29.3,United States                           
94894,BIG CYPRESS INDIAN RSV                  ,26.3167,-81,4.9,United States                           
94895,GARCIASVILLE 2 ESE                      ,26.3231,-98.6778,53.3,United States                           
94896,BIG CYPRESS                             ,26.3283,-80.9958,4.6,United States                           
94897,ENGLEMAN GARDENS                        ,26.3333,-98.0167,21,United States                           
94899,RIO GRANDE CITY                         ,26.3769,-98.8117,52.4,United States                           
94900,LYFORD                                  ,26.4,-97.8,-999,United States                           
94901,IMMOKALEE                               ,26.4622,-81.4406,10.7,United States                           
94902,SOUTH BAY 15 S                          ,26.47,-80.6403,6.1,United States                           
94903,RAYMONDVILLE                            ,26.4819,-97.8097,9.4,United States                           
94904,LOXAHATCHEE NWR                         ,26.4986,-80.2161,6.4,United States                           
94906,CAPTIVA                                 ,26.5333,-82.1833,-999,United States                           
94908,HYPOLUXO                                ,26.55,-80.05,3,United States                           
94909,PORT MANSFIELD                          ,26.5578,-97.4264,2.7,United States                           
94910,FALCON DAM                              ,26.5581,-99.1372,97.5,United States                           
94911,MCCOOK                                  ,26.565,-98.1236,67.1,United States                           
94912,SAN MANUEL                              ,26.565,-98.1203,22.9,United States                           
94913,EL SAUZ                                 ,26.5747,-98.8708,62.2,United States                           
94914,FT MYERS PAGE FLD AP                    ,26.585,-81.8614,4.6,United States                           
94915,DEVILS GARDEN                           ,26.6033,-81.1292,6.1,United States                           
94916,RITTA                                   ,26.6833,-80.6667,5.5,United States                           
94917,LOXAHATCHEE                             ,26.6833,-80.2667,4.3,United States                           
94918,WEST PALM BCH INTL AP                   ,26.6847,-80.0994,5.8,United States                           
94919,BELLE GLADE                             ,26.6928,-80.6711,6.1,United States                           
94920,SAN JUANITO                             ,26.7,-98.2333,-999,United States                           
94921,WEST PALM BEACH                         ,26.7167,-80.05,6.1,United States                           
94923,WEST PALM BCH RADIO WJ                  ,26.7333,-80.05,2.4,United States                           
94924,CLEWISTON #2                            ,26.7361,-81.0492,5.5,United States                           
94925,CLEWISTON                               ,26.7422,-80.94,6.1,United States                           
94926,LA BELLE                                ,26.7458,-81.4264,4.9,United States                           
94927,ORTONA LOCK 2                           ,26.7897,-81.3045,6.1,United States                           
94928,PALM BEACH GARDENS                      ,26.8261,-80.1489,6.1,United States                           
94929,ARMSTRONG 4SE                           ,26.8339,-97.7078,7.6,United States                           
94930,MOORE HAVEN LOCK 1                      ,26.84,-81.0872,10.7,United States                           
94931,MUSE                                    ,26.8519,-81.5572,2.1,United States                           
94932,ROYAL PALM BEACH WEST                   ,26.8561,-80.3008,3,United States                           
94933,JUNO BEACH                              ,26.86,-80.0553,1.5,United States                           
94934,CANAL POINT USDA                        ,26.8639,-80.6256,9.1,United States                           
94935,ZAPATA 1 S                              ,26.8706,-99.2536,97.5,United States                           
94936,AGUA NUEVA                              ,26.9,-98.6,139.9,United States                           
94937,PUNTA GORDA 4 ESE                       ,26.9164,-81.9983,6.1,United States                           
94939,ARMSTRONG                               ,26.9333,-97.8,9.1,United States                           
94940,PUNTA GORDA                             ,26.9333,-82.05,3,United States                           
94941,INDIANTOWN                              ,27.0167,-80.4667,9.1,United States                           
94942,ESCOBAS                                 ,27.0267,-98.9808,125,United States                           
94943,BRIGHTON RSVN                           ,27.0436,-81.0694,6.1,United States                           
94944,KAFFIE RCH                              ,27.0833,-98.5833,146,United States                           
94945,PORT SALERNO 5W                         ,27.0997,-80.2628,3.7,United States                           
94946,VENICE                                  ,27.1006,-82.4364,2.4,United States                           
94947,VENUS                                   ,27.135,-81.3303,49.1,United States                           
94948,FALFURRIAS                              ,27.1394,-98.12,42.4,United States                           
94949,OKEECHOBEE                              ,27.1508,-80.8653,5.5,United States                           
94951,ARCHBOLD BIO STN                        ,27.1819,-81.3508,42.7,United States                           
94952,STUART                                  ,27.1897,-80.2397,4,United States                           
94953,SARITA 7 E                              ,27.2169,-97.6956,11.6,United States                           
94954,ARCADIA                                 ,27.2181,-81.8739,9.1,United States                           
94955,OKEECHOBEE 9 W                          ,27.2333,-80.9667,6.1,United States                           
94956,MYAKKA RIVER SP                         ,27.2417,-82.3161,6.1,United States                           
94957,OKEECHOBEE NEAR                         ,27.25,-80.8667,-999,United States                           
94958,OKEECHOBEE INTOWN                       ,27.2556,-80.8358,7.9,United States                           
94959,LAKE PLACID 2 SW                        ,27.2833,-81.3833,27.1,United States                           
94960,NETTLES ISLAND                          ,27.285,-80.2269,3,United States                           
94961,HEBBRONVILLE                            ,27.3194,-98.6775,176.8,United States                           
94962,SARASOTA 5 E                            ,27.3333,-82.4667,9.1,United States                           
94963,SARASOTA                                ,27.35,-82.5333,9.1,United States                           
94964,CONCEPCION 3 S                          ,27.3583,-98.3811,79.2,United States                           
94965,DESOTO CITY 8 SW                        ,27.3697,-81.5136,25.9,United States                           
94966,BASINGER                                ,27.3833,-81.0333,11.9,United States                           
94968,RICARDO                                 ,27.4167,-97.8167,18,United States                           
94969,LONGBOAT KEY                            ,27.4167,-82.65,3,United States                           
94970,FT PIERCE ARC                           ,27.4325,-80.4036,6.1,United States                           
94971,FT PIERCE                               ,27.4417,-80.3508,7.6,United States                           
94972,PADRE IS NS                             ,27.4467,-97.2967,3,United States                           
94973,BRADENTON 5 ESE                         ,27.4467,-82.5014,6.1,United States                           
94974,MIRANDO CITY                            ,27.45,-99,235,United States                           
94975,OILTON                                  ,27.45,-98.9167,244.1,United States                           
94976,BRADENTON EXP STN                       ,27.4833,-82.55,3,United States                           
94978,FT MC INTOSH                            ,27.5,-99.5167,139.9,United States                           
94979,FORT DRUM                               ,27.5139,-80.7694,14.9,United States                           
94980,KINGSVILLE                              ,27.5311,-97.8497,17.4,United States                           
94981,LAREDO WB AP                            ,27.5333,-99.4667,152.4,United States                           
94983,WAUCHULA                                ,27.5478,-81.7994,18.3,United States                           
94984,LAREDO 2                                ,27.5683,-99.4983,131.1,United States                           
94985,FT GREEN 12 WSW                         ,27.5706,-82.1378,34.1,United States                           
94986,BISHOP                                  ,27.5842,-97.8031,20.4,United States                           
94987,CHAPMAN RCH                             ,27.5892,-97.4547,7.6,United States                           
94988,AVON PARK 2 W                           ,27.5947,-81.5267,46.9,United States                           
94989,BENAVIDES 2                             ,27.5969,-98.4161,115.8,United States                           
94990,AVON PARK 1 NW                          ,27.6,-81.5,46,United States                           
94991,PARRISH                                 ,27.6089,-82.3478,18.3,United States                           
94993,BRIGHTON                                ,27.65,-97.3,3,United States                           
94996,VERO BEACH 4SE                          ,27.6528,-80.4031,6.1,United States                           
94997,VERO BEACH INTL AP                      ,27.6531,-80.2428,8.5,United States                           
94998,C C BOTANICAL GARDENS                   ,27.6606,-97.3983,4.9,United States                           
94999,SHAEFFER RCH                            ,27.6667,-97.75,57.9,United States                           
95001,FELLSMERE 7 SSW                         ,27.6833,-80.65,6.1,United States                           
95003,ALICE                                   ,27.7283,-98.0678,61.3,United States                           
95005,ST PETERSBURG                           ,27.7628,-82.6261,2.4,United States                           
95006,CORPUS CHRISTI AP                       ,27.7742,-97.5122,13.4,United States                           
95007,CORPUS CHRISTI NWS                      ,27.7792,-97.5056,13.4,United States                           
95008,ROBSTOWN                                ,27.7894,-97.6619,25.9,United States                           
95009,CORPUS CHRISTI                          ,27.8,-97.4,3,United States                           
95010,INDIAN LAKE ESTATES                     ,27.8,-81.3333,30.5,United States                           
95011,OASIS FISHING LODGE                     ,27.8,-81.2,18.3,United States                           
95012,GRAPE HAMMOCK                           ,27.8,-81.2,14.3,United States                           
95013,TURKEY HAMMOCK                          ,27.8,-81.1833,18.3,United States                           
95014,SHADY OAKS FISH CAMP                    ,27.8167,-81.2167,18.3,United States                           
95015,SEBASTIAN                               ,27.8167,-80.4833,11,United States                           
95016,PINELLAS PARK                           ,27.8333,-82.7,4.6,United States                           
95017,PORT ARANSAS                            ,27.8381,-97.0592,3.7,United States                           
95019,KENANSVILLE                             ,27.8703,-81.0436,18.6,United States                           
95020,BARTOW                                  ,27.8986,-81.8433,38.1,United States                           
95022,MAMMOTH GROVE LK WALES                  ,27.9,-81.5667,46.6,United States                           
95025,KENANSVILLE 8 WNW                       ,27.9167,-81.1167,20.4,United States                           
95026,FREER 4N                                ,27.9361,-98.6169,152.4,United States                           
95027,MTN LAKE                                ,27.9378,-81.5992,38.1,United States                           
95029,TAMPA INTL AP                           ,27.9619,-82.5403,5.8,United States                           
95030,CLEARWATER                              ,27.9667,-82.7667,21,United States                           
95031,CLEARWATER BEACH                        ,27.9833,-82.8333,3,United States                           
95032,LAKELAND 2                              ,27.9914,-82.0136,41.8,United States                           
95033,PALM BAY                                ,28.0061,-80.73,6.7,United States                           
95034,WINTER HAVEN                            ,28.0153,-81.7331,44.2,United States                           
95035,ROCKPORT MARINE LAB                     ,28.0167,-97.05,3,United States                           
95036,LAKELAND                                ,28.0206,-81.9219,44.2,United States                           
95037,PLANT CITY                              ,28.0236,-82.1422,36.6,United States                           
95038,ENCINAL                                 ,28.0239,-99.3508,176.8,United States                           
95039,ROCKPORT                                ,28.0286,-97.0567,2.7,United States                           
95040,SINTON                                  ,28.0353,-97.4972,16.2,United States                           
95041,MATHIS 4 SSW                            ,28.0369,-97.8725,42.1,United States                           
95042,FOREVER FLORIDA                         ,28.0425,-81.0372,23.2,United States                           
95043,TEMPLE TERRACES                         ,28.05,-82.3833,22.9,United States                           
95044,HOLOPAW 6 SE                            ,28.05,-81.05,21,United States                           
95045,MELBOURNE BEACH A1A                     ,28.0547,-80.5511,3.7,United States                           
95049,DEER PARK                               ,28.1,-80.9,14.9,United States                           
95051,LAKE ALFRED EXP STN                     ,28.1042,-81.7144,42.1,United States                           
95053,WELDER WILDLIFE FNDN                    ,28.1136,-97.4178,15.2,United States                           
95054,MELBOURNE WFO                           ,28.1167,-80.75,-999,United States                           
95055,HILLSBOROUGH RVR ST PARK                ,28.1469,-82.2275,16.2,United States                           
95056,TARPON SPGS SEWAGE PL                   ,28.1522,-82.7539,2.4,United States                           
95061,ST. CLOUD                               ,28.25,-81.2667,19.2,United States                           
95062,ARANSAS WILDLIFE REF                    ,28.2667,-96.8,6.1,United States                           
95063,KISSIMMEE 2                             ,28.2764,-81.4239,18.3,United States                           
95064,REFUGIO 3 SW                            ,28.2939,-97.3297,16.5,United States                           
95065,REFUGIO                                 ,28.3,-97.2833,14.9,United States                           
95066,KISSIMMEE                               ,28.3,-81.4167,21,United States                           
95068,ARANSAS WR                              ,28.3081,-96.8047,4.6,United States                           
95069,REFUGIO 2 NW                            ,28.3294,-97.2947,13.7,United States                           
95070,SAINT LEO                               ,28.3378,-82.26,57.9,United States                           
95071,CATARINA                                ,28.3392,-99.6328,170.7,United States                           
95072,MERRITT ISLAND                          ,28.35,-80.7,9.1,United States                           
95075,HART LAKE                               ,28.3833,-81.1833,18,United States                           
95076,TILDEN 4 SSE                            ,28.4114,-98.5294,105.2,United States                           
95078,PORT O'CONNOR                           ,28.4342,-96.4278,1.5,United States                           
95079,CLERMONT 9 S                            ,28.4553,-81.7233,39.6,United States                           
95081,BEEVILLE 5 NE                           ,28.4575,-97.7061,77.7,United States                           
95082,CALLIHAM                                ,28.4658,-98.3539,66.4,United States                           
95083,TILDEN                                  ,28.4667,-98.55,-999,United States                           
95084,CHOKE CANYON DAM                        ,28.4675,-98.2525,70.1,United States                           
95087,CARRIZO SPRINGS 3W                      ,28.4897,-99.8739,186.8,United States                           
95088,FOWLERTON                               ,28.5033,-98.8392,91.4,United States                           
95089,ORLANDO WEST                            ,28.5083,-81.5467,45.7,United States                           
95090,WEEKI WACHEE                            ,28.5175,-82.5756,6.1,United States                           
95092,LAKE HIAWASSEE                          ,28.5333,-81.4667,36.9,United States                           
95093,BAYPORT                                 ,28.55,-82.6333,14.9,United States                           
95094,BAYPORT                                 ,28.55,-82.6167,-999,United States                           
95095,ORLANDO WTP                             ,28.55,-81.35,34.1,United States                           
95098,CROSS                                   ,28.5978,-98.5547,86.9,United States                           
95099,PORT LAVACA                             ,28.6078,-96.6417,5.5,United States                           
95101,BROOKSVILLE CHIN HILL                   ,28.6164,-82.3658,73.2,United States                           
95102,PORT LAVACA 2                           ,28.6167,-96.6333,6.1,United States                           
95103,TITUSVILLE                              ,28.6242,-80.8158,1.5,United States                           
95104,WINTER HAVEN EXP STN                    ,28.6333,-99.8667,182.9,United States                           
95105,WHITSETT 3 SW                           ,28.6333,-98.2667,64,United States                           
95106,POINT COMFORT                           ,28.6575,-96.5553,6.1,United States                           
95107,WHITSETT                                ,28.6611,-98.2564,78.6,United States                           
95108,GOLIAD                                  ,28.6617,-97.385,43.3,United States                           
95109,BUSHNELL 1 E                            ,28.6664,-82.0894,22.9,United States                           
95110,CRYSTAL CITY                            ,28.6794,-99.8311,176.8,United States                           
95111,DILLEY                                  ,28.6806,-99.1833,167.6,United States                           
95112,MATAGORDA NO 2                          ,28.6836,-95.9733,3,United States                           
95113,COLETO CREEK RSVR                       ,28.7156,-97.1742,36,United States                           
95114,COLLEGEPORT                             ,28.7167,-96.1833,4.3,United States                           
95115,PALACIOS MUNI AP                        ,28.7247,-96.2536,3.7,United States                           
95116,PLYMOUTH 3N                             ,28.7322,-81.562,19.2,United States                           
95118,PANASOFFKEE                             ,28.75,-82.1,-999,United States                           
95119,EAGLE PASS 3N                           ,28.7569,-100.4792,247.5,United States                           
95121,VICTORIA WB AP                          ,28.7833,-97.0833,35.1,United States                           
95122,VICTORIA CP&L                           ,28.7875,-97.0106,18.6,United States                           
95124,INVERNESS 3 SE                          ,28.8028,-82.3125,12.2,United States                           
95125,SANFORD                                 ,28.8147,-81.2778,3.7,United States                           
95126,KENEDY                                  ,28.8167,-97.85,85,United States                           
95127,SANFORD EXP STN                         ,28.8167,-81.25,3,United States                           
95129,RUNGE                                   ,28.8297,-97.7133,89.9,United States                           
95130,ORANGE HOME                             ,28.8333,-81.9833,22.9,United States                           
95131,VICTORIA RGNL AP                        ,28.8439,-96.9214,31.7,United States                           
95132,EUSTIS 2 S                              ,28.85,-81.6833,21,United States                           
95133,VICTORIA FIRE DEPT #5                   ,28.8608,-97.0181,30.8,United States                           
95135,LISBON                                  ,28.8728,-81.7844,20.7,United States                           
95136,PEARSALL                                ,28.8889,-99.0897,193.5,United States                           
95137,KARNES CITY 2N                          ,28.9069,-97.8756,137.2,United States                           
95139,MAURBRO                                 ,28.9167,-96.4667,9.1,United States                           
95140,SAN BERNARD W/L REFUGE                  ,28.9167,-95.5833,3.7,United States                           
95141,CHARLOTTE 5 NNW                         ,28.9275,-98.7494,134.4,United States                           
95143,ORANGE CITY                             ,28.9333,-81.3,15.8,United States                           
95144,EDNA 3 SW                               ,28.95,-96.6833,21,United States                           
95145,BATESVILLE                              ,28.9567,-99.6228,227.1,United States                           
95146,PLEASANTON                              ,28.9606,-98.4772,130.8,United States                           
95147,EDNA HWY 59 BRG                         ,28.9667,-96.6833,20.7,United States                           
95148,BURRWOOD WB                             ,28.9667,-89.3833,4,United States                           
95149,BAY CITY WTR WKS                        ,28.9797,-95.975,15.8,United States                           
95150,LA PRYOR                                ,28.9836,-99.8678,231.3,United States                           
95151,FREEPORT 2 NW                           ,28.9844,-95.3808,2.4,United States                           
95153,PORT EADS                               ,29.0167,-89.1667,3,United States                           
95154,PIERSON                                 ,29.0167,-81.4667,-999,United States                           
95155,DELAND 1 SSE                            ,29.0181,-81.3106,7.6,United States                           
95156,POTEET                                  ,29.0283,-98.5686,129.5,United States                           
95157,ST. FRANCIS                             ,29.0333,-81.3833,6.1,United States                           
95158,BRAZORIA                                ,29.05,-95.5667,9.1,United States                           
95159,ALEXANDER SPRINGS 3 SE                  ,29.05,-81.55,21,United States                           
95160,NEW SMYRNA BEACH                        ,29.05,-80.95,3,United States                           
95161,DANEVANG 1 W                            ,29.0567,-96.2319,21.3,United States                           
95162,PONCE INLET                             ,29.0661,-80.915,2.4,United States                           
95163,CUERO                                   ,29.0667,-97.2833,54.9,United States                           
95164,ROCKWELL                                ,29.0667,-82.4667,3,United States                           
95166,CUERO                                   ,29.0892,-97.3433,65.2,United States                           
95167,ROSSVILLE                               ,29.1,-98.6833,171,United States                           
95169,FLORESVILLE                             ,29.1322,-98.1597,121.9,United States                           
95170,MAGNET                                  ,29.1333,-96.0333,22.3,United States                           
95171,CEDAR KEY 1 WSW                         ,29.1333,-83.05,3,United States                           
95172,CASTOLON                                ,29.1344,-103.515,661.1,United States                           
95174,DEVINE                                  ,29.15,-98.9,210,United States                           
95175,EAST COLUMBIA                           ,29.15,-95.6167,14.9,United States                           
95176,ANGLETON 2 W                            ,29.1572,-95.4592,8.2,United States                           
95177,OCALA                                   ,29.1636,-82.0778,22.9,United States                           
95179,UVALDE 3 SW                             ,29.185,-99.8325,280.4,United States                           
95180,RIO GRANDE VILLAGE                      ,29.1853,-102.9622,566.3,United States                           
95181,BOQUILLAS RS                            ,29.1853,-102.9622,566.3,United States                           
95182,JAMAICA BEACH                           ,29.1967,-94.9883,1.2,United States                           
95183,DAYTONA BEACH                           ,29.1967,-81.0083,8.8,United States                           
95184,NATALIA                                 ,29.2,-98.85,217,United States                           
95185,EL CAMPO                                ,29.2,-96.2653,33.5,United States                           
95186,OCALA 2 NE                              ,29.2,-82.1,21,United States                           
95187,UVALDE                                  ,29.2167,-99.7667,278,United States                           
95188,QUARANTINE                              ,29.2167,-89.2667,3,United States                           
95189,DELTA BREPON WLD RFG                    ,29.2167,-89.2667,3,United States                           
95190,STOCKDALE                               ,29.2308,-97.9597,139.3,United States                           
95191,UVALDE                                  ,29.2333,-99.8,284.1,United States                           
95192,PIERCE 1 E                              ,29.2353,-96.1817,32,United States                           
95193,LYTLE 3W                                ,29.2358,-98.8433,220.1,United States                           
95194,GRAND ISLE                              ,29.2414,-89.9914,0.6,United States                           
95195,WILLIAM HARRIS RSVR                     ,29.25,-95.55,11.9,United States                           
95196,NEW GULF                                ,29.2667,-95.895,21.9,United States                           
95198,COCODRIE                                ,29.2667,-90.65,3,United States                           
95199,NIXON                                   ,29.2692,-97.7575,121.9,United States                           
95200,LAJITAS                                 ,29.2694,-103.7575,732.4,United States                           
95201,CHISOS BASIN                            ,29.2703,-103.3003,1615.4,United States                           
95202,YOAKUM                                  ,29.2739,-97.1556,89.9,United States                           
95203,MAVERICK RS                             ,29.2833,-103.5,823.9,United States                           
95206,VENICE                                  ,29.2833,-89.35,-999,United States                           
95207,MORRISTON                               ,29.2833,-82.45,24.4,United States                           
95208,SAN ANTONIO NURSERY                     ,29.3,-98.4667,180.1,United States                           
95209,CHEAPSIDE                               ,29.3103,-97.3469,94.5,United States                           
95210,BRACKETTVILLE                           ,29.3167,-100.4144,341.4,United States                           
95211,WHARTON                                 ,29.3178,-96.0847,33.8,United States                           
95212,PANTHER JUNCTION                        ,29.3272,-103.2061,1140,United States                           
95213,SABINAL                                 ,29.3283,-99.4653,290.5,United States                           
95214,STUDY BUTTE                             ,29.3286,-103.5531,781.2,United States                           
95215,DEL RIO 4 SW                            ,29.3317,-100.9297,264.9,United States                           
95217,GALVESTON                               ,29.3333,-94.7717,3,United States                           
95219,HONDO                                   ,29.3364,-99.1383,267,United States                           
95221,BURAS                                   ,29.3414,-89.5158,1.5,United States                           
95223,TERLINGUA                               ,29.3486,-103.595,802.5,United States                           
95226,HITCHCOCK                               ,29.35,-95.0167,6.1,United States                           
95227,HONDO MUNI AP                           ,29.36,-99.1742,280.4,United States                           
95228,ALVIN                                   ,29.3653,-95.2336,8.5,United States                           
95229,DEL RIO WB CITY                         ,29.3667,-100.9,292.9,United States                           
95231,LA VERNIA                               ,29.3667,-98.1,146,United States                           
95232,POINT AU FER REEF LH                    ,29.3667,-91.3833,0,United States                           
95235,ALTA LOMA                               ,29.3833,-95.0667,4.3,United States                           
95236,CAMP WALLACE                            ,29.3833,-95.0333,5.2,United States                           
95237,GOLDEN MEADOW                           ,29.3833,-90.2667,0,United States                           
95238,EMPIRE                                  ,29.4,-89.6,-999,United States                           
95239,USHER TWR                               ,29.4083,-82.8186,10.1,United States                           
95240,ELMENDORF                               ,29.4167,-98.3333,214,United States                           
95241,DEL RIO 2 NW                            ,29.4217,-100.9119,329.2,United States                           
95242,CRESCENT CITY                           ,29.4292,-81.5158,16.2,United States                           
95244,BIG BEND RCH SP                         ,29.4372,-103.9583,1261.9,United States                           
95246,HEATH CANYON                            ,29.4481,-102.8283,536.4,United States                           
95247,SAN ANTONIO/SEAWORLD                    ,29.4508,-98.7028,286.5,United States                           
95248,LAKE AMENT                              ,29.4589,-103.4994,1100,United States                           
95249,AMISTAD DAM                             ,29.4608,-101.0286,352.7,United States                           
95250,GALLIANO                                ,29.4631,-90.3072,1.5,United States                           
95251,THOMPSONS                               ,29.4667,-95.55,20.7,United States                           
95252,HOMEPLACE                               ,29.4667,-89.6667,-999,United States                           
95253,HALLETTSVILLE 2 N                       ,29.4706,-96.9397,83.8,United States                           
95254,HOUSTON NWSO                            ,29.4717,-95.0833,5.8,United States                           
95255,TERLINGUA RANCH 2                       ,29.4744,-103.4061,1122.3,United States                           
95256,ORANGE SPRINGS 2SSW                     ,29.4794,-81.9681,15.2,United States                           
95257,THOMPSONS 3 WSW                         ,29.4822,-95.6314,21.3,United States                           
95258,PORT SULPHUR                            ,29.4833,-89.7,3,United States                           
95259,GONZALES 2                              ,29.5,-97.45,92,United States                           
95260,MICANOPY                                ,29.5,-82.2833,-999,United States                           
95262,SAN ANTONIO 8NNE                        ,29.5253,-98.4539,240.2,United States                           
95263,ROCK ISLAND                             ,29.5333,-96.5833,75.9,United States                           
95264,GONZALES 1N                             ,29.5339,-97.45,115.8,United States                           
95267,ROSENBERG                               ,29.55,-95.7833,34.1,United States                           
95268,LAWRENCE                                ,29.55,-89.8,3,United States                           
95269,SATSUMA HEIGHTS                         ,29.55,-81.65,23.8,United States                           
95270,PRESIDIO 2                              ,29.56,-104.3728,783.3,United States                           
95273,PRESIDIO                                ,29.5711,-104.3714,795.5,United States                           
95274,STUDY BUTTE 30NNE                       ,29.5811,-103.3539,942.4,United States                           
95275,LSU CITRUS RSCH STN                     ,29.5814,-89.8222,1.2,United States                           
95277,SEGUIN                                  ,29.5833,-97.95,156.1,United States                           
95278,PLAQUEMINES EXP STN                     ,29.5833,-89.8333,1.2,United States                           
95279,DIAMOND 4 NW                            ,29.5833,-89.8333,1.2,United States                           
95280,HOUMA                                   ,29.5858,-90.7303,4.6,United States                           
95281,DELTA FARMS                             ,29.6,-90.35,0.3,United States                           
95282,BRACKETTVILLE 22 N                      ,29.61,-100.4519,536.4,United States                           
95284,OLD TOWN                                ,29.6167,-82.9833,-999,United States                           
95285,SUGAR LAND                              ,29.6183,-95.6358,25,United States                           
95286,EAGLE LAKE RESCH CTR                    ,29.6211,-96.3661,53.6,United States                           
95288,CROSS CITY 1 E                          ,29.6333,-83.1053,12.8,United States                           
95290,GAINESVILLE 3 WSW                       ,29.6333,-82.3667,29.3,United States                           
95291,FLATONIA 4SE                            ,29.6339,-97.0644,143.3,United States                           
95292,PALM COAST 6NE                          ,29.6347,-81.2061,1.5,United States                           
95294,PALATKA                                 ,29.6439,-81.6606,21.3,United States                           
95295,PERSIMMON GAP 6 E                       ,29.65,-103.0833,772.1,United States                           
95297,GAINESVILLE UNIV OF FL                  ,29.65,-82.35,52.1,United States                           
95298,PERSIMMON GAP                           ,29.6603,-103.1736,873.3,United States                           
95299,TARPLEY                                 ,29.6675,-99.2883,423.7,United States                           
95300,CAMP WOOD                               ,29.6703,-100.0097,451.1,United States                           
95301,SEA HAG MARINA                          ,29.6711,-83.3883,1.5,United States                           
95302,LULING                                  ,29.6756,-97.6578,121.9,United States                           
95303,GAINESVILLE 11 WNW                      ,29.6814,-82.4942,29,United States                           
95304,SCHULENBURG                             ,29.6825,-96.8564,88.4,United States                           
95305,COMSTOCK                                ,29.6833,-101.1833,483.1,United States                           
95307,MORGAN CITY                             ,29.6833,-91.1761,1.5,United States                           
95309,COLUMBUS                                ,29.6989,-96.5731,68.6,United States                           
95310,COMSTOCK 11 WNW                         ,29.7,-101.35,384,United States                           
95311,LEAKEY 2                                ,29.7,-99.8333,488,United States                           
95312,WEIMAR                                  ,29.7,-96.7833,-999,United States                           
95313,STEPHENSVILLE                           ,29.7,-83.3833,3,United States                           
95314,NEW BRAUNFELS WFO                       ,29.7044,-98.0286,191.4,United States                           
95315,CLODINE                                 ,29.7067,-95.6878,26.5,United States                           
95317,PASADENA HOUSTON                        ,29.7167,-95.2167,9.1,United States                           
95319,MELROSE                                 ,29.7167,-82.05,44.2,United States                           
95321,NEW BRAUNFELS                           ,29.7192,-98.1189,189,United States                           
95322,STEINHATCHEE 6 ENE                      ,29.7236,-83.3061,10.7,United States                           
95323,APALACHICOLA AP                         ,29.7258,-85.0206,6.1,United States                           
95324,ROCKEFELLER WL REFUGE                   ,29.7286,-92.8181,1.2,United States                           
95325,HOUSTON-PORT                            ,29.73,-95.2736,5.8,United States                           
95326,GOOSE CREEK                             ,29.7333,-94.9667,7,United States                           
95327,SCHRIEVER                               ,29.7333,-90.8167,6.1,United States                           
95329,CAMERON                                 ,29.75,-93.3333,3,United States                           
95330,FEDERAL POINT                           ,29.755,-81.5389,1.5,United States                           
95331,HASTINGS 4NE                            ,29.7653,-81.4697,3,United States                           
95332,JEDDO 3S                                ,29.7664,-97.3164,126.5,United States                           
95333,HOUSTON WB CITY                         ,29.7667,-95.3667,15.8,United States                           
95334,GRAND CHENIER                           ,29.7667,-92.95,3,United States                           
95335,SEALY                                   ,29.7714,-96.1456,59.7,United States                           
95336,THIBODAUX 3 ESE                         ,29.7758,-90.78,4.6,United States                           
95338,VERMILION LOCK                          ,29.7833,-92.2,3,United States                           
95339,MARRERO 9 SSW                           ,29.7853,-90.1158,0.9,United States                           
95340,LELAND BOWMAN LOCK                      ,29.7856,-92.2047,12.2,United States                           
95341,ANAHUAC                                 ,29.7878,-94.6342,7.3,United States                           
95342,PARADIS 7 S                             ,29.7892,-90.4286,1.5,United States                           
95343,CARTA VALLEY                            ,29.7908,-100.6742,564.2,United States                           
95345,BAYTOWN                                 ,29.7917,-95.0436,10.4,United States                           
95346,BELL 4NW                                ,29.7956,-82.9178,9.1,United States                           
95347,BOERNE                                  ,29.7986,-98.7736,439.8,United States                           
95348,LANGTRY 2                               ,29.8,-101.5667,409,United States                           
95349,LANGTRY                                 ,29.8097,-101.5603,393.2,United States                           
95350,MEDINA 1NE                              ,29.81,-99.2497,521.8,United States                           
95351,DALCOUR                                 ,29.8167,-90,24.1,United States                           
95352,HOPEDALE                                ,29.8167,-89.65,0.9,United States                           
95353,FRANKLIN 3 NW                           ,29.8233,-91.5442,3.7,United States                           
95354,HIGH SPRINGS                            ,29.8286,-82.5972,19.8,United States                           
95355,NEW ORLEANS CALLENDER                   ,29.8333,-90.0167,0.6,United States                           
95356,ST AUGUSTINE BEACH                      ,29.8333,-81.2667,3,United States                           
95357,O 2 RCH                                 ,29.85,-103.75,1153.1,United States                           
95358,PORT ARTHUR WB CITY                     ,29.8667,-93.9333,3,United States                           
95359,CATFISH POINT                           ,29.8667,-92.85,3,United States                           
95360,SHELL BCH LOYOLA CAMP                   ,29.8667,-89.65,-999,United States                           
95361,CARRABELLE 1 NNW                        ,29.8667,-84.6667,3,United States                           
95362,CANYON DAM                              ,29.8706,-98.1967,304.8,United States                           
95363,ST BERNARD                              ,29.8722,-89.83,1.5,United States                           
95364,SAN MARCOS                              ,29.8833,-97.9494,202.7,United States                           
95366,NAVAL AMMUNITION DEPOT                  ,29.8833,-89.9833,-999,United States                           
95367,ADAMS BEACH                             ,29.8833,-83.6333,-999,United States                           
95368,ST AUGUSTINE                            ,29.8833,-81.3333,6.1,United States                           
95369,LOCKHART                                ,29.8858,-97.6917,166.7,United States                           
95370,ST AUGUSTINE LH                         ,29.8875,-81.2917,3.7,United States                           
95371,HACKBERRY 8 SSW                         ,29.8894,-93.4019,1.8,United States                           
95372,TERRYTOWN 3S                            ,29.91,-90.0342,3,United States                           
95373,PRADE RCH                               ,29.9167,-99.7908,625.4,United States                           
95374,HOUSTON SAN JACINTO DA                  ,29.9167,-95.15,17.7,United States                           
95375,NEW ORLEANS AUDUBON                     ,29.9167,-90.1303,6.1,United States                           
95376,LA GRANGE                               ,29.9172,-96.8753,108.8,United States                           
95378,CARROLLTON                              ,29.9333,-90.1167,2.1,United States                           
95379,STARKE                                  ,29.9333,-82.1,49.4,United States                           
95381,NEW ORLEANS CARROLLTON                  ,29.9347,-90.1361,0,United States                           
95382,STARKE                                  ,29.9381,-82.1164,53,United States                           
95383,LAKE BUTLER                             ,29.9453,-82.3314,41.1,United States                           
95384,BAKERS CROSSING                         ,29.95,-101.15,460.2,United States                           
95386,GUEYDAN 5 S                             ,29.95,-92.5167,3,United States                           
95387,SOUTHERN UNIV FARM                      ,29.95,-90.15,3,United States                           
95389,STARKE 5 E                              ,29.95,-82.0333,50.3,United States                           
95392,JEANERETTE 5 NW                         ,29.9592,-91.7108,6.1,United States                           
95393,RED ROCK                                ,29.9667,-97.45,158.5,United States                           
95394,ABBEVILLE                               ,29.9689,-92.1169,3,United States                           
95395,BELL CITY 13 SW                         ,29.9747,-93.0897,1.2,United States                           
95397,PAINCOURTVILLE                          ,29.9833,-91.0833,6.1,United States                           
95398,CAMP BLANDING                           ,29.9833,-81.9833,57.9,United States                           
95399,PENNY FARMS                             ,29.9833,-81.8,29,United States                           
95401,PANACEA 1 S                             ,29.9989,-84.485,1.8,United States                           
95402,LAKE ARTHUR 10 SW                       ,30.0031,-92.7808,3,United States                           
95403,ROCKSPRINGS 1S                          ,30.0039,-100.2064,731.5,United States                           
95404,HUDSPETH RIVER RANCH                    ,30.005,-101.1772,496.8,United States                           
95405,SMITHVILLE                              ,30.0156,-97.1539,103.6,United States                           
95406,CEDAR CREEK 5 S                         ,30.0164,-97.4786,132.9,United States                           
95407,ROCKSPRINGS 5 W                         ,30.0167,-100.3,729.1,United States                           
95408,CYPRESS                                 ,30.0211,-95.7069,45.7,United States                           
95409,LOUISIANA NATURE CTR                    ,30.0306,-89.9636,-1.5,United States                           
95410,BELLVILLE 6 NNE                         ,30.0317,-96.2167,85.3,United States                           
95411,RUIDOSA 7 NE                            ,30.0333,-104.5833,1104.9,United States                           
95414,NEW ORLEANS AP                          ,30.0333,-90.0333,1.8,United States                           
95416,NEW IBERIA ACADIANA AP                  ,30.0375,-91.8839,7.3,United States                           
95418,NEW ORLEANS LKFRNT AP                   ,30.0494,-90.0289,2.7,United States                           
95419,DRYDEN                                  ,30.05,-102.1167,667.5,United States                           
95420,KERRVILLE                               ,30.05,-99.15,499.9,United States                           
95421,WALLACE                                 ,30.05,-90.6833,6.1,United States                           
95422,PONTCHARTRAIN GROVE                     ,30.05,-89.6167,0,United States                           
95423,RESERVE                                 ,30.0564,-90.5803,4.6,United States                           
95424,LIBERTY                                 ,30.0592,-94.795,10.7,United States                           
95425,MIDDLEBURG                              ,30.0603,-81.8475,25,United States                           
95426,HUNT 10 W                               ,30.0628,-99.505,612.6,United States                           
95428,EMILIE                                  ,30.0667,-90.6167,6.1,United States                           
95430,SANBORN TWR                             ,30.0667,-84.6,11.9,United States                           
95431,SWITZERLAND                             ,30.0667,-81.65,3,United States                           
95433,RAIFORD STATE PRISON                    ,30.0678,-82.1928,36.6,United States                           
95434,BEAUMONT RSCH CTR                       ,30.0689,-94.2928,8.2,United States                           
95435,DONALDSONVILLE 4 SW                     ,30.0719,-91.0278,9.1,United States                           
95437,KERRVILLE 3 NNE                         ,30.0747,-99.1081,544.1,United States                           
95438,JUNO 4 S                                ,30.0833,-101.1167,554.7,United States                           
95439,ORANGE                                  ,30.0858,-93.7417,3,United States                           
95440,ST MARTINVILLE 3 SW                     ,30.0858,-91.8694,9.1,United States                           
95442,BEAUMONT CITY                           ,30.0969,-94.0997,6.1,United States                           
95443,PERRY                                   ,30.0986,-83.5742,13.7,United States                           
95444,BASTROP                                 ,30.1,-97.3333,116.1,United States                           
95445,HEMPSTEAD                               ,30.1,-96.0833,76.5,United States                           
95446,CADES                                   ,30.1,-91.9,-999,United States                           
95447,ST MARKS 5 SSE                          ,30.1,-84.1667,3,United States                           
95449,BLANCO                                  ,30.1061,-98.4286,420.6,United States                           
95450,MAYO                                    ,30.1064,-83.1819,19.8,United States                           
95451,WEWAHITCHKA                             ,30.1192,-85.2042,12.8,United States                           
95453,NEW CANEY 2 E                           ,30.1375,-95.1783,71.6,United States                           
95454,CANDELARIA                              ,30.1383,-104.6822,876.9,United States                           
95455,SANDERSON                               ,30.1386,-102.3919,841.2,United States                           
95456,JUNO                                    ,30.15,-101.1167,548.9,United States                           
95457,BURNSIDE                                ,30.15,-90.9167,-999,United States                           
95458,BRENHAM                                 ,30.1592,-96.3972,95.4,United States                           
95459,PANAMA CITY 2                           ,30.1667,-85.7,4.6,United States                           
95460,PANAMA CITY                             ,30.1667,-85.7,3,United States                           
95461,ORANGE PARK                             ,30.1667,-81.7,7.6,United States                           
95462,AUSTIN 8SSE                             ,30.1728,-97.6983,165.8,United States                           
95465,LAKE CITY 2 E                           ,30.1853,-82.5942,59.4,United States                           
95466,VINTON                                  ,30.1922,-93.5811,3.7,United States                           
95467,MARATHON                                ,30.1925,-103.2717,1215.8,United States                           
95468,CARVILLE 2 SW                           ,30.1981,-91.1256,7.6,United States                           
95469,VINTON 5W                               ,30.1992,-93.6778,3.4,United States                           
95470,DRYDEN 10 NE                            ,30.2,-101.8333,694.9,United States                           
95472,SMITH CREEK                             ,30.2,-84.6667,18.3,United States                           
95473,SECOTAN                                 ,30.2,-83.65,14.9,United States                           
95474,JENNINGS                                ,30.2003,-92.6642,7.6,United States                           
95475,LAFAYETTE FCWOS                         ,30.205,-91.9875,11.6,United States                           
95476,PANDALE 1 N                             ,30.2061,-101.5575,514.8,United States                           
95478,DRIPPING SPRINGS 6 E                    ,30.2133,-97.9822,341.4,United States                           
95479,LAKE CHARLES                            ,30.2167,-93.2167,-999,United States                           
95482,LAFAYETTE                               ,30.2192,-92.065,7.6,United States                           
95483,BREAUX BRIDGE 4 S                       ,30.2233,-91.9033,7.6,United States                           
95484,ORANGE 9 N                              ,30.2264,-93.7394,5.5,United States                           
95485,HILL'S RANCH                            ,30.2333,-97.6833,144.8,United States                           
95486,FT MORGAN                               ,30.2333,-88.0167,3,United States                           
95488,PONTE VEDRA BEACH                       ,30.2333,-81.3833,-999,United States                           
95489,SULPHUR                                 ,30.2383,-93.3447,3,United States                           
95490,FREDERICKSBURG                          ,30.2392,-98.9089,513.6,United States                           
95491,CROWLEY 2 NE                            ,30.2408,-92.3478,7.6,United States                           
95492,PANAMA CITY 5N                          ,30.2492,-85.6606,1.5,United States                           
95495,PONTCHARTRAIN CAUSEWAY                  ,30.25,-90.1167,9.1,United States                           
95496,PEARLINGTON                             ,30.25,-89.6167,3,United States                           
95497,LUMBERTON                               ,30.2503,-94.1786,11.9,United States                           
95498,DAUPHIN ISLAND #2                       ,30.2506,-88.0775,2.4,United States                           
95500,SLIDELL                                 ,30.265,-89.7697,3,United States                           
95501,SUBSTN 14                               ,30.2667,-100.5833,793.1,United States                           
95502,SONORA EXP ST                           ,30.2667,-100.5667,762.9,United States                           
95504,PANDALE 11 NE                           ,30.2678,-101.4533,507.5,United States                           
95505,GLEN ST MARY 1 W                        ,30.2717,-82.1856,39,United States                           
